[
  {
    "region": "Región Occidental",
    "department": "SO",
    "municipality": "Juayua",
    "unit_sis": "Básica",
    "name": "UCSF Juayua SO Los Naranjos",
    "lat": 13.8780542,
    "lon": -89.67343,
    "id": "b4067328-f7fe-42be-a6c9-84550461c9f3"
  },
  {
    "region": "Región Paracentral",
    "department": "SO",
    "municipality": "El Carmen",
    "unit_sis": "Básica",
    "name": "UCSF El Carmén CU Santa Lucía",
    "lat": 13.7340244,
    "lon": -88.9028267999999,
    "id": "efa28636-a9e1-42b7-93b8-8638a4ca7a96"
  },
  {
    "region": "Región Metropolitana",
    "department": "SS",
    "municipality": "San Salvador",
    "unit_sis": "Intermedia",
    "name": "Hospital Nacional Rosales",
    "lat": 13.6929403,
    "lon": -89.2182228,
    "id": "a1234567-b8c9-4d0e-f1a2-b3c4d5e6f7g8"
  },
  {
    "region": "Región Oriental",
    "department": "US",
    "municipality": "Usulután",
    "unit_sis": "Básica",
    "name": "UCSF Usulután Centro",
    "lat": 13.3500000,
    "lon": -88.4500000,
    "id": "c2345678-d9e0-5f1a-2b3c-4d5e6f7g8h9i"
  },
  {
    "region": "Región Occidental",
    "department": "AH",
    "municipality": "Ahuachapán",
    "unit_sis": "Intermedia",
    "name": "Hospital Nacional San Rafael",
    "lat": 13.9213889,
    "lon": -89.8452778,
    "id": "d3456789-e0f1-6a2b-3c4d-5e6f7g8h9i0j"
  },
  {
    "region": "Región Paracentral",
    "department": "LP",
    "municipality": "Zacatecoluca",
    "unit_sis": "Básica",
    "name": "UCSF Zacatecoluca",
    "lat": 13.5055556,
    "lon": -88.8638889,
    "id": "e4567890-f1a2-7b3c-4d5e-6f7g8h9i0j1k"
  }
]